City_ID,City,Lat,Lng,Max Temp,Humidity,Cloudiness,Wind Speed,Country,Date
0,new norfolk,-42.7826,147.0587,56.91,68,98,5.99,AU,1669480309
1,san patricio,28.017,-97.5169,62.47,54,42,16.71,US,1669480309
2,haverfordwest,51.8017,-4.9691,54.05,95,100,8.99,GB,1669480309
3,punta arenas,-53.15,-70.9167,53.62,54,75,24.16,CL,1669480310
4,busselton,-33.65,115.3333,51.69,83,2,11.05,AU,1669480310
5,warmbad,-28.45,18.7333,83.61,7,0,9.73,NA,1669480311
6,zhigansk,66.7697,123.3711,-35.91,97,96,8.05,RU,1669480311
7,cherskiy,68.75,161.3,-18.35,99,99,3.96,RU,1669480312
8,kungurtug,50.5994,97.5228,-2.25,90,100,5.21,RU,1669480312
9,hermanus,-34.4187,19.2345,66.79,61,15,17.94,ZA,1669480312
10,inhambane,-23.865,35.3833,71.58,100,75,4.61,MZ,1669480313
11,rikitea,-23.1203,-134.9692,74.26,74,63,4.14,PF,1669480313
12,butaritari,3.0707,172.7902,79.63,78,99,6.35,KI,1669480314
13,dikson,73.5069,80.5464,12.87,95,100,12.8,RU,1669480314
14,katsuura,35.1333,140.3,59.5,87,43,11.21,JP,1669480314
15,ahipara,-35.1667,173.1667,57.09,94,86,6.55,NZ,1669480315
16,mataura,-46.1927,168.8643,39.94,87,76,2.28,NZ,1669480315
17,atuona,-9.8,-139.0333,77.56,72,78,15.52,PF,1669480316
18,ushuaia,-54.8,-68.3,51.46,58,75,29.93,AR,1669480302
19,bredasdorp,-34.5322,20.0403,62.65,59,55,11.01,ZA,1669480316
20,kassala,15.451,36.4,87.1,26,40,9.48,SD,1669480317
21,port-gentil,-0.7193,8.7815,76.96,88,20,8.05,GA,1669480317
22,oltu,40.5498,42.0013,41.86,98,100,4.21,TR,1669480317
23,ribas do rio pardo,-20.4431,-53.7592,95.13,20,0,8.52,BR,1669480318
24,kizukuri,40.8061,140.3861,46.53,53,84,15.77,JP,1669480319
25,esperance,-33.8667,121.9,58.93,65,96,12.24,AU,1669480319
26,geraldton,-28.7667,114.6,66.61,72,100,18.41,AU,1669480211
27,chokurdakh,70.6333,147.9167,-42.07,100,94,3.74,RU,1669480320
28,jamestown,42.097,-79.2353,47.79,61,0,9.22,US,1669480314
29,cozumel,20.5083,-86.9458,86.07,77,40,12.66,MX,1669480320
30,plettenberg bay,-34.0527,23.3716,62.08,70,5,3.76,ZA,1669480321
31,clyde river,70.4692,-68.5914,-12.77,84,100,5.75,CA,1669480321
32,barrow,71.2906,-156.7887,6.82,78,100,11.5,US,1669480321
33,tasiilaq,65.6145,-37.6368,33.96,62,100,8.81,GL,1669480322
34,nuevo progreso,23.1667,-97.95,62.89,72,100,1.01,MX,1669480323
35,jeremie,18.65,-74.1167,84.15,63,5,5.53,HT,1669480323
36,vaini,-21.2,-175.2,77.16,94,75,4.61,TO,1669480324
37,airai,-8.9266,125.4092,61.0,90,100,1.74,TL,1669480324
38,yellowknife,62.456,-114.3525,16.32,92,100,2.3,CA,1669480087
39,guerrero negro,27.9769,-114.0611,63.66,38,30,0.96,MX,1669480142
40,qaanaaq,77.484,-69.3632,0.75,88,100,4.61,GL,1669480325
41,chuy,-33.6971,-53.4616,78.06,49,0,13.04,UY,1669480326
42,apatou,5.155,-54.3472,89.6,55,85,2.08,GF,1669480326
43,sorland,67.667,12.6934,42.66,67,100,16.96,NO,1669480327
44,port elizabeth,-33.918,25.5701,69.31,68,0,10.36,ZA,1669480306
45,coruripe,-10.1256,-36.1756,84.49,65,69,17.45,BR,1669480260
46,uruacu,-14.5247,-49.1408,80.76,65,100,4.5,BR,1669480328
47,mount isa,-20.7333,139.5,85.77,42,93,9.22,AU,1669480329
48,puro,12.4841,123.3827,79.14,83,6,9.37,PH,1669480202
49,eureka,40.8021,-124.1637,46.67,96,55,1.01,US,1669480115
50,kudahuvadhoo,2.6708,72.8944,81.28,74,99,5.61,MV,1669480330
51,hasaki,35.7333,140.8333,55.8,84,42,11.79,JP,1669480330
52,kununurra,-15.7667,128.7333,82.38,74,100,4.61,AU,1669480331
53,meridian,43.6121,-116.3915,36.14,94,100,5.75,US,1669480204
54,pemangkat,1.1667,108.9667,79.27,82,47,3.85,ID,1669480332
55,bathsheba,13.2167,-59.5167,88.41,66,40,19.57,BB,1669480332
56,hilo,19.7297,-155.09,66.25,76,0,8.05,US,1669480333
57,toamasina,-18.1667,49.3833,77.0,78,40,4.61,MG,1669480333
58,kapaa,22.0752,-159.319,70.12,86,100,6.91,US,1669480333
59,cape town,-33.9258,18.4232,69.12,57,20,31.07,ZA,1669480057
60,coquimbo,-29.9533,-71.3436,64.13,72,75,6.91,CL,1669480335
61,ribeira grande,38.5167,-28.7,64.8,52,20,12.66,PT,1669480336
62,codrington,-38.2667,141.9667,52.38,91,88,9.73,AU,1669480336
63,liverpool,53.4106,-2.9779,54.28,87,20,18.41,GB,1669480170
64,winona,43.9666,-91.7668,47.41,49,0,9.22,US,1669480338
65,bluff,-46.6,168.3333,47.48,65,93,4.27,NZ,1669480338
66,cidreira,-30.1811,-50.2056,74.17,79,20,14.43,BR,1669480242
67,puerto ayora,-0.7393,-90.3518,75.16,91,92,4.0,EC,1669480339
68,hithadhoo,-0.6,73.0833,81.86,75,56,9.53,MV,1669480339
69,kenai,60.5544,-151.2583,1.49,92,0,4.61,US,1669480340
70,carnarvon,-24.8667,113.6333,68.94,72,0,23.67,AU,1669480341
71,necochea,-38.5473,-58.7368,83.35,34,86,7.65,AR,1669480204
72,isangel,-19.55,169.2667,76.39,86,80,5.32,VU,1669480342
73,ramnagar,29.4,79.1167,61.84,67,87,3.89,IN,1669480342
74,ilulissat,69.2167,-51.1,15.82,73,75,8.05,GL,1669480343
75,kaeo,-35.1,173.7833,53.33,94,93,5.68,NZ,1669480343
76,clarence town,-32.5833,151.7833,63.99,96,75,2.42,AU,1669480344
77,saint-philippe,-21.3585,55.7679,76.59,74,33,9.98,RE,1669480344
78,namibe,-15.1961,12.1522,73.69,76,45,11.1,AO,1669480344
79,aranda de duero,41.6704,-3.6892,47.03,49,98,1.7,ES,1669480345
80,cotonou,6.3654,2.4183,85.98,74,20,13.8,BJ,1669480072
81,albany,42.6001,-73.9662,47.35,60,34,3.0,US,1669479929
82,port alfred,-33.5906,26.891,62.19,91,87,1.01,ZA,1669480346
83,quatre cocos,-20.2078,57.7625,76.08,67,42,14.0,MU,1669480347
84,pevek,69.7008,170.3133,-20.42,98,89,4.92,RU,1669480347
85,komsomolskiy,40.4272,71.7189,39.92,93,100,0.0,UZ,1669480348
86,yulara,-25.2406,130.9889,75.27,57,99,9.69,AU,1669480348
87,pontianak,-0.0333,109.3333,78.78,88,40,2.3,ID,1669480349
88,carutapera,-1.195,-46.02,88.02,52,76,9.57,BR,1669480349
89,san bartolome,27.9248,-15.5733,64.87,73,20,14.97,ES,1669480350
90,burnie,-41.0667,145.9167,54.95,96,89,11.83,AU,1669480350
91,miramar,25.9873,-80.2323,87.03,72,75,8.05,US,1669480351
92,thompson,55.7435,-97.8558,24.96,93,100,4.61,CA,1669480351
93,togur,58.3631,82.8265,-16.4,94,95,6.38,RU,1669480352
94,chapais,49.7834,-74.8492,26.38,92,100,10.47,CA,1669480352
95,mtambile,-5.3833,39.7,76.95,87,27,8.12,TZ,1669480353
96,bengkulu,-3.8004,102.2655,75.38,89,100,3.09,ID,1669480318
97,sur,22.5667,59.5289,77.94,66,0,7.54,OM,1669480353
98,longyearbyen,78.2186,15.6401,11.28,94,93,2.71,SJ,1669480354
99,opuwo,-18.0607,13.84,86.92,18,19,18.14,NA,1669480354
100,sabzevar,36.2126,57.6819,52.88,37,0,6.91,IR,1669480355
101,lodwar,3.1191,35.5973,86.65,40,87,20.27,KE,1669480355
102,bethel,41.3712,-73.414,51.03,54,0,5.75,US,1669480356
103,cabo san lucas,22.8909,-109.9124,75.51,61,0,3.44,MX,1669480003
104,rocha,-34.4833,-54.3333,85.33,35,0,11.61,UY,1669480356
105,kruisfontein,-34.0033,24.7314,66.88,67,12,6.96,ZA,1669480357
106,khatanga,71.9667,102.5,-11.06,96,100,17.18,RU,1669480357
107,naze,28.3667,129.4833,65.32,72,45,13.15,JP,1669480358
108,tartagal,-22.5164,-63.8013,97.88,15,0,7.11,AR,1669480358
109,san lorenzo,-25.3333,-57.5333,90.59,33,0,3.44,PY,1669480159
110,fort nelson,58.8053,-122.7002,11.95,95,75,0.0,CA,1669480359
111,padang,-0.9492,100.3543,75.25,85,81,3.58,ID,1669480359
112,maniitsoq,65.4167,-52.9,21.22,70,27,3.18,GL,1669480359
113,baturaja,-4.1333,104.1667,73.6,99,100,1.9,ID,1669480360
114,tuktoyaktuk,69.4541,-133.0374,3.2,85,100,14.97,CA,1669480360
115,avera,33.194,-82.5271,60.85,44,14,8.61,US,1669480361
116,hobyo,5.3505,48.5268,80.65,68,20,13.82,SO,1669480361
117,lagoa,39.05,-27.9833,60.71,56,100,12.93,PT,1669480362
118,shingu,33.7333,135.9833,55.24,85,0,6.82,JP,1669480362
119,harper,4.375,-7.7169,82.2,71,33,8.93,LR,1669480362
120,mahibadhoo,3.7833,72.9667,81.18,72,74,4.81,MV,1669480363
121,pisco,-13.7,-76.2167,69.85,78,20,11.5,PE,1669480190
122,namatanai,-3.6667,152.4333,79.41,79,54,5.3,PG,1669480363
123,campos,-21.75,-41.3,82.45,61,20,11.5,BR,1669480115
124,cerritos,33.8583,-118.0648,68.27,44,0,3.44,US,1669480232
125,kodiak,57.79,-152.4072,33.31,55,0,14.97,US,1669480364
126,nizwa,22.9333,57.5333,76.35,34,0,0.83,OM,1669480176
127,varkaus,62.3153,27.873,28.31,89,89,6.02,FI,1669480365
128,aasiaat,68.7098,-52.8699,11.14,94,96,7.9,GL,1669480365
129,provideniya,64.3833,-173.3,7.88,77,7,6.76,RU,1669480365
130,dunedin,-45.8742,170.5036,45.81,81,31,6.42,NZ,1669480335
131,backa topola,45.8152,19.6318,42.93,82,100,5.28,RS,1669480366
132,fortuna,40.5982,-124.1573,44.98,98,100,0.0,US,1669480301
133,dalbandin,28.8947,64.4101,62.38,10,67,4.7,PK,1669480366
134,chenghai,23.4632,116.768,69.71,83,75,4.47,CN,1669480367
135,luanda,-8.8368,13.2343,79.79,78,98,9.37,AO,1669480262
136,mao,39.8885,4.2658,57.76,62,0,11.5,ES,1669480205
137,tabou,4.423,-7.3528,82.27,70,34,8.28,CI,1669480367
138,pedernales,18.0384,-71.744,84.34,62,6,7.47,DO,1669480368
139,doaba,33.4244,70.7364,59.04,32,0,3.2,PK,1669480368
140,matata,-37.8833,176.75,55.85,85,60,4.12,NZ,1669480241
141,havoysund,70.9963,24.6622,34.03,76,52,9.13,NO,1669480369
142,faya,18.3851,42.4509,60.91,61,66,2.19,SA,1669480369
143,hansi,29.1,75.9667,66.42,20,89,3.42,IN,1669480370
144,marsa matruh,31.3525,27.2453,64.83,60,100,8.88,EG,1669480370
145,kangaatsiaq,68.3065,-53.4641,19.06,92,98,0.83,GL,1669480370
146,gujar khan,33.2558,73.3026,57.63,32,0,3.98,PK,1669480371
147,lavrentiya,65.5833,-171.0,8.82,77,98,9.01,RU,1669480371
148,kalmunai,7.4167,81.8167,77.31,82,27,1.57,LK,1669480341
149,terrace,54.5163,-128.6035,42.71,93,100,17.27,CA,1669480372
150,hobart,-42.8794,147.3294,57.25,79,75,11.5,AU,1669480372
151,karratha,-20.7377,116.8463,80.04,53,1,18.99,AU,1669480372
152,mahebourg,-20.4081,57.7,76.24,73,40,8.05,MU,1669480373
153,mouila,-1.8685,11.0559,72.95,98,100,1.66,GA,1669480373
154,avarua,-21.2078,-159.775,73.45,88,100,5.75,CK,1669480374
155,teya,60.3778,92.6267,-18.8,94,99,1.1,RU,1669480374
156,san luis,-33.295,-66.3356,95.52,14,79,22.64,AR,1669480317
157,betong,5.7743,101.0723,70.93,98,97,1.61,TH,1669480375
158,fare,-16.7,-151.0167,78.37,72,4,13.11,PF,1669480375
159,grand gaube,-20.0064,57.6608,76.37,66,23,11.01,MU,1669480375
160,yerbogachen,61.2767,108.0108,-14.67,97,100,7.07,RU,1669480376
161,fenoarivo,-18.933,47.4354,68.07,60,20,12.66,MG,1669480376
162,bulgan,48.8125,103.5347,7.9,91,100,6.98,MN,1669480377
163,waddan,29.1614,16.139,68.52,45,100,4.12,LY,1669480377
164,gazanjyk,39.2446,55.5154,56.39,39,16,13.02,TM,1669480378
165,altea,38.5989,-0.0514,64.38,53,20,7.0,ES,1669480378
166,freeport,40.6576,-73.5832,52.29,47,0,18.41,US,1669480319
167,vila velha,-20.3297,-40.2925,80.55,77,20,16.11,BR,1669480379
168,moerai,-22.4333,-151.3333,73.56,81,44,14.65,PF,1669480379
169,upernavik,72.7868,-56.1549,13.26,90,100,10.87,GL,1669480379
170,bam,29.106,58.357,64.17,23,0,1.83,IR,1669480380
171,tezu,27.9167,96.1667,62.58,46,0,4.27,IN,1669480380
172,lompoc,34.6391,-120.4579,66.78,51,0,6.91,US,1669480380
173,umm kaddadah,13.6017,26.6876,70.92,16,0,12.59,SD,1669480381
174,aksu,41.1231,80.2644,45.59,22,69,18.39,CN,1669480382
175,evensk,61.95,159.2333,-9.4,83,67,10.74,RU,1669480382
176,krasnyy chikoy,50.3643,108.7512,1.58,94,100,2.55,RU,1669480382
177,maraa,-1.8333,-65.3667,95.32,42,59,2.59,BR,1669480383
178,okhotsk,59.3833,143.3,-6.23,88,11,19.17,RU,1669480383
179,berlevag,70.8578,29.0864,30.15,74,25,9.22,NO,1669480384
180,sundumbili,-29.1337,31.3975,68.9,95,100,5.17,ZA,1669480385
181,hamilton,39.1834,-84.5333,52.0,65,20,9.22,US,1669480385
182,ewa beach,21.3156,-158.0072,68.43,81,0,5.75,US,1669480358
183,itarema,-2.9248,-39.9167,87.1,57,97,16.37,BR,1669480386
184,ostrovnoy,68.0531,39.5131,21.43,87,64,19.35,RU,1669480386
185,ndioum,16.5129,-14.6471,94.32,7,94,12.3,SN,1669480387
186,sajanan,37.0573,9.2426,59.92,77,94,23.78,TN,1669480387
187,anadyr,64.75,177.4833,7.3,92,40,0.0,RU,1669480388
188,wichian buri,15.6578,101.106,76.24,89,97,0.4,TH,1669480388
189,korla,41.7597,86.1469,38.08,34,77,2.62,CN,1669480099
190,blagoveshchenka,52.8333,79.8667,-14.44,93,7,4.52,RU,1669480389
191,kavaratti,10.5669,72.642,81.73,71,50,6.71,IN,1669480390
192,mount gambier,-37.8333,140.7667,50.49,94,75,6.44,AU,1669480390
193,asau,46.4333,26.4,38.32,87,98,2.17,RO,1669480391
194,kamenka,51.3223,42.7678,35.62,87,100,13.62,RU,1669480391
195,ziarat,30.3823,67.7282,44.04,17,2,7.74,PK,1669480392
196,port hardy,50.6996,-127.4199,42.98,100,100,3.44,CA,1669480392
197,mogadishu,2.0371,45.3438,80.89,74,95,13.13,SO,1669480393
198,souillac,-20.5167,57.5167,75.58,73,40,8.05,MU,1669480393
199,iqaluit,63.7506,-68.5145,10.13,61,100,2.3,CA,1669480393
200,amapa,1.0,-52.0,95.0,35,83,3.62,BR,1669480394
201,broome,42.2506,-75.833,48.45,64,0,8.05,US,1669480395
202,najran,17.4924,44.1277,72.25,34,54,6.93,SA,1669480238
203,vanimo,-2.6741,141.3028,78.3,79,75,2.46,PG,1669480395
204,bilibino,68.0546,166.4372,-22.95,100,88,2.77,RU,1669480396
205,omboue,-1.5746,9.2618,76.03,88,95,5.26,GA,1669480396
206,fukue,32.6881,128.8419,63.0,54,0,15.35,JP,1669480397
207,east london,-33.0153,27.9116,63.54,88,75,6.91,ZA,1669480397
208,nhulunbuy,-12.2333,136.7667,81.21,83,100,1.14,AU,1669480398
209,kukmor,56.1855,50.8944,21.02,96,100,7.25,RU,1669480399
210,naifaru,5.4444,73.3657,80.92,67,78,2.62,MV,1669480399
211,macae,-22.3708,-41.7869,83.95,61,20,11.5,BR,1669480400
212,arraial do cabo,-22.9661,-42.0278,80.56,69,20,14.97,BR,1669480346
213,port lincoln,-34.7333,135.8667,57.02,81,61,10.31,AU,1669480400
214,hualmay,-11.0964,-77.6139,72.3,72,50,10.78,PE,1669480401
215,broken hill,-31.95,141.4333,68.83,58,57,15.05,AU,1669480401
216,teguldet,57.3064,88.1667,-19.37,93,55,5.46,RU,1669480402
217,marsh harbour,26.5412,-77.0636,79.16,75,23,6.67,BS,1669480403
218,gagra,43.3283,40.2239,56.32,97,100,5.12,GE,1669480403
219,batagay-alyta,67.8006,130.4114,-30.78,92,81,2.84,RU,1669480404
220,banjar,-8.19,114.9675,77.25,91,100,3.98,ID,1669480404
221,payakumbuh,-0.2202,100.6308,68.85,97,85,3.2,ID,1669480405
222,labrea,-7.2586,-64.7981,91.26,52,96,1.41,BR,1669480405
223,georgetown,5.4112,100.3354,82.33,89,20,4.61,MY,1669480140
224,aykhal,66.0,111.5,-24.03,100,95,2.55,RU,1669480406
225,kahului,20.8947,-156.47,68.02,88,75,4.61,US,1669480407
226,salinopolis,-0.6136,-47.3561,85.91,60,61,11.18,BR,1669480407
227,kaitangata,-46.2817,169.8464,37.96,91,18,6.6,NZ,1669480408
228,andenes,69.3143,16.1194,31.98,80,20,8.05,NO,1669480408
229,rudbar,30.15,62.6,62.26,16,3,3.53,AF,1669480409
230,alofi,-19.0595,-169.9187,69.69,100,1,2.3,NU,1669480409
231,cremona,45.2333,9.9333,52.48,80,3,1.34,IT,1669480410
232,seoul,37.5683,126.9778,35.04,60,0,4.61,KR,1669480410
233,patnanungan,14.7833,122.1833,79.84,77,16,11.52,PH,1669480411
234,ponta do sol,32.6667,-17.1,73.0,69,99,0.96,PT,1669480411
235,saint-pierre,-21.3393,55.4781,76.68,53,0,9.22,RE,1669480412
236,jalu,29.0331,21.5482,65.55,50,88,6.71,LY,1669480412
237,aswan,24.0934,32.907,70.57,32,0,11.34,EG,1669480413
238,seydi,39.4816,62.9137,48.61,49,0,14.97,TM,1669480414
239,lucera,41.5082,15.3351,49.82,93,75,10.36,IT,1669480299
240,rivera,-30.9053,-55.5508,88.5,29,0,11.45,UY,1669480415
241,torbay,47.6666,-52.7314,39.76,91,100,8.99,CA,1669480415
242,brigham city,41.5102,-112.0155,37.54,69,75,1.99,US,1669480415
243,college,64.8569,-147.8028,17.55,89,100,0.0,US,1669480345
244,saskylakh,71.9167,114.0833,-16.64,93,93,6.71,RU,1669480416
245,galveston,29.3669,-94.9669,60.15,92,100,5.99,US,1669480417
246,sao filipe,14.8961,-24.4956,78.93,63,0,9.98,CV,1669480417
247,dakar,14.6937,-17.4441,95.88,55,90,13.67,SN,1669480192
248,burns lake,54.2331,-125.7533,36.82,86,84,5.75,CA,1669480418
249,yendi,9.4427,-0.0099,91.06,18,69,1.74,GH,1669480418
250,ancud,-41.8697,-73.8203,64.8,52,38,6.76,CL,1669480419
251,mozhga,56.4447,52.2276,17.56,95,100,7.31,RU,1669480419
252,ambilobe,-13.2,49.05,77.97,63,8,5.14,MG,1669480420
253,joshimath,30.5667,79.5667,53.17,28,48,6.76,IN,1669480420
254,daru,-9.0763,143.2092,78.28,85,100,2.86,PG,1669480421
255,calama,-22.4667,-68.9333,75.69,11,0,25.32,CL,1669480422
256,grindavik,63.8424,-22.4338,37.87,100,22,5.75,IS,1669480422
257,ovsyanka,55.9575,92.5519,-22.83,94,96,5.12,RU,1669480422
258,san cristobal,7.7669,-72.225,77.18,46,83,4.07,VE,1669480423
259,northam,51.0333,-4.2167,53.38,92,100,27.18,GB,1669480423
260,celestun,20.8667,-90.4,84.97,65,72,6.22,MX,1669480424
261,la rioja,42.25,-2.5,44.38,47,100,3.53,ES,1669480424
262,staryy nadym,65.6118,72.6842,-3.08,98,89,7.07,RU,1669480424
263,black river,18.0264,-77.8487,85.37,58,7,6.29,JM,1669480425
264,tuatapere,-46.1333,167.6833,39.4,89,48,3.65,NZ,1669480425
265,riacho de santana,-13.6092,-42.9389,77.63,74,100,7.38,BR,1669480425
266,comodoro rivadavia,-45.8667,-67.5,64.26,36,0,13.8,AR,1669480426
267,constitucion,-35.3333,-72.4167,70.07,56,5,5.53,CL,1669480426
268,vestmannaeyjar,63.4427,-20.2734,40.19,87,20,9.22,IS,1669480427
269,manaus,-3.1019,-60.025,77.5,94,75,5.75,BR,1669480427
270,mar del plata,-38.0023,-57.5575,66.94,87,75,14.97,AR,1669480390
271,da nang,16.0678,108.2208,78.78,89,40,1.14,VN,1669480399
272,great falls,47.5002,-111.3008,37.69,96,100,5.75,US,1669480373
273,acajutla,13.5928,-89.8275,83.93,69,83,4.52,SV,1669480428
274,druzhba,52.0428,33.9453,34.57,96,100,9.42,UA,1669480429
275,horn,51.8715,8.9451,46.33,86,100,4.74,DE,1669480429
276,basco,20.4487,121.9702,80.04,80,98,18.66,PH,1669480430
277,faanui,-16.4833,-151.75,78.76,71,58,13.47,PF,1669480430
278,benghazi,32.1167,20.0667,67.1,53,100,11.81,LY,1669480431
279,nikolskoye,59.7035,30.7861,13.89,85,99,6.85,RU,1669480431
280,bairiki,1.3292,172.9752,78.8,89,40,2.3,KI,1669480431
281,russell,32.3502,-85.1999,60.08,94,100,4.61,US,1669480432
282,bolshoye selo,57.7177,38.9334,9.99,96,49,5.37,RU,1669480432
283,chitral,35.8462,71.7858,47.16,43,0,7.02,PK,1669480432
284,elko,41.0002,-115.5012,25.05,83,100,1.99,US,1669480210
285,grande prairie,55.1667,-118.8027,35.78,64,75,9.22,CA,1669480228
286,longyan,25.1072,117.0225,64.51,97,100,3.51,CN,1669480433
287,jaisalmer,26.9147,70.9181,71.51,17,56,0.87,IN,1669480433
288,norman wells,65.282,-126.8329,10.44,85,100,0.0,CA,1669480434
289,santa rosa,14.3122,121.1114,81.1,77,8,7.65,PH,1669480434
290,mitsamiouli,-11.3847,43.2844,79.56,76,36,6.24,KM,1669480435
291,houma,29.5958,-90.7195,68.0,95,100,10.36,US,1669480351
292,mayo,38.8876,-76.5119,57.13,47,0,8.05,US,1669480435
293,ardesen,41.1911,40.9875,54.81,88,100,12.93,TR,1669480162
294,svetlaya,46.5389,138.3297,25.16,54,61,8.41,RU,1669480435
295,puerto escondido,15.85,-97.0667,86.83,62,20,4.61,MX,1669480436
296,mayya,61.7333,130.2811,-38.88,100,67,0.96,RU,1669480436
297,kutum,14.2,24.6667,67.14,13,0,10.27,SD,1669480437
298,ndele,8.4109,20.6473,81.3,24,38,3.04,CF,1669480437
299,fougamou,-1.2154,10.5838,73.04,98,100,2.3,GA,1669480437
300,magnitogorsk,53.4186,59.0472,2.23,78,100,0.0,RU,1669480438
301,aksha,50.2814,113.2867,4.12,96,100,3.91,RU,1669480438
302,palmer,42.1584,-72.3287,49.51,49,20,12.66,US,1669480438
303,salalah,17.0151,54.0924,78.89,69,0,3.44,OM,1669480439
304,neuquen,-38.9516,-68.0591,89.49,66,0,12.66,AR,1669480439
305,bahia honda,22.9036,-83.1592,83.89,62,83,7.63,CU,1669480440
306,pangnirtung,66.1451,-65.7125,5.0,56,75,2.3,CA,1669480440
307,saint george,37.1041,-113.5841,34.39,51,0,4.61,US,1669480200
308,nouadhibou,20.931,-17.0347,71.92,66,0,16.15,MR,1669480441
309,onda,39.9667,-0.25,63.45,56,43,0.6,ES,1669480441
310,castro,-24.7911,-50.0119,67.08,79,90,7.76,BR,1669480442
311,benguela,-12.5763,13.4055,79.09,79,97,6.76,AO,1669480443
312,kirakira,-10.4544,161.9205,80.17,81,84,5.44,SB,1669480443
313,tukan,53.8409,57.4552,12.22,84,100,4.03,RU,1669480444
314,vila franca do campo,37.7167,-25.4333,63.19,80,100,6.4,PT,1669480444
315,belonia,23.2528,91.4514,64.71,74,0,2.59,IN,1669480276
316,smithers,54.7804,-127.1743,35.92,93,100,10.36,CA,1669480445
317,sa kaeo,13.75,102.3333,75.09,91,99,3.69,TH,1669480445
318,urengoy,65.9667,78.3667,-14.67,100,38,6.44,RU,1669480285
319,kupang,-10.1667,123.5833,79.12,79,99,1.57,ID,1669480446
320,beatrice,40.2681,-96.747,48.18,75,0,6.91,US,1669480446
321,hofn,64.2539,-15.2082,43.16,85,100,17.0,IS,1669480447
322,fairbanks,64.8378,-147.7164,17.56,89,75,0.0,US,1669480425
323,cap-aux-meules,47.3821,-61.8597,37.45,100,100,27.63,CA,1669480448
324,winkler,49.1817,-97.941,37.62,75,100,11.5,CA,1669480448
325,khani,41.9563,42.9566,44.17,98,100,1.36,GE,1669480449
326,litovko,49.2361,135.1742,8.78,97,93,2.42,RU,1669480449
327,jumla,29.2747,82.1838,45.23,47,4,4.68,NP,1669480450
328,kyra,49.5776,111.9753,3.54,97,100,3.18,RU,1669480450
329,vrangel,42.7297,133.0839,27.36,50,7,12.95,RU,1669480451
330,eyl,7.9803,49.8164,79.12,78,6,16.67,SO,1669480451
331,labuhan,-6.8844,112.2051,76.82,88,100,7.67,ID,1669480452
332,texarkana,33.4251,-94.0477,55.4,96,100,10.36,US,1669480452
333,marandahalli,12.4,78.0,70.3,81,73,1.61,IN,1669480453
334,chicama,-7.8447,-79.1469,64.94,60,61,10.31,PE,1669480454
335,promyshlennyy,67.5833,63.9167,5.27,96,100,11.72,RU,1669480454
336,klaksvik,62.2266,-6.589,49.12,94,100,30.44,FO,1669480455
337,mbandaka,0.0487,18.2603,72.19,95,90,3.31,CD,1669480455
338,falam,22.9167,93.6833,53.35,86,0,2.33,MM,1669480456
339,west wendover,40.7391,-114.0733,25.81,74,75,0.0,US,1669480458
340,gravdal,68.1214,13.5031,38.53,72,100,15.7,NO,1669480458
341,kotka,60.4664,26.9458,22.26,78,100,15.26,FI,1669480459
342,la ronge,55.1001,-105.2842,25.05,63,75,9.22,CA,1669480164
343,laramie,41.3114,-105.5911,44.96,48,0,0.0,US,1669480173
344,nadym,65.5333,72.5167,-1.14,96,85,8.08,RU,1669480460
345,ampanihy,-24.7,44.75,79.0,62,38,1.92,MG,1669480460
346,kailua,21.4022,-157.7394,68.49,85,44,1.99,US,1669480461
347,kavieng,-2.5744,150.7967,81.64,66,76,6.96,PG,1669480462
348,chum phae,16.5443,102.0992,74.44,91,96,2.57,TH,1669480462
349,emerald,-23.5333,148.1667,70.34,55,62,8.32,AU,1669480463
350,paso de los toros,-32.8167,-56.5167,90.39,25,6,12.48,UY,1669480463
351,te anau,-45.4167,167.7167,38.82,92,83,1.83,NZ,1669480390
352,carauari,-4.8828,-66.8958,90.19,59,92,3.6,BR,1669480464
353,sao joao da barra,-21.6403,-41.0511,82.49,90,100,10.74,BR,1669480465
354,sobolevo,54.4299,31.8996,31.93,98,100,11.3,RU,1669480465
355,kapit,2.0167,112.9333,72.57,99,97,0.58,MY,1669480466
356,tiksi,71.6872,128.8694,-20.22,97,100,8.95,RU,1669480466
357,sioux lookout,50.1001,-91.917,35.67,80,100,8.05,CA,1669480243
358,sukhumi,43.0033,41.0153,56.25,89,100,4.32,GE,1669480467
359,puerto leguizamo,-0.1934,-74.7819,92.21,45,65,3.83,CO,1669480467
360,anchorage,61.2181,-149.9003,17.56,87,0,3.44,US,1669479842
361,gotsu,35.0,132.2167,54.5,54,0,7.14,JP,1669480468
362,asfi,32.2994,-9.2372,70.39,67,0,15.99,MA,1669480469
363,adrar,20.5022,-10.0711,83.23,10,92,10.02,MR,1669480469
364,valparaiso,-33.0393,-71.6273,69.01,88,100,11.5,CL,1669480469
365,linfen,36.0889,111.5189,45.81,45,60,2.01,CN,1669480470
366,hameenlinna,60.996,24.4643,25.14,93,100,6.04,FI,1669480470
367,kibre mengist,5.8833,38.9833,60.4,78,98,2.71,ET,1669480471
368,aljezur,37.3191,-8.8033,60.91,68,52,0.96,PT,1669480471
369,yarada,17.65,83.2667,71.92,94,40,2.3,IN,1669480472
370,superior,46.7208,-92.1041,48.31,54,0,14.97,US,1669480472
371,putina,-15.4667,-69.4333,52.57,49,17,12.97,PE,1669480473
372,carballo,43.213,-8.691,60.87,70,92,9.26,ES,1669480473
373,lokosovo,61.1333,74.8167,-5.62,90,94,8.59,RU,1669480474
374,pushkinskiye gory,57.0209,28.9103,27.27,97,100,6.22,RU,1669480474
375,farafenni,13.5667,-15.6,92.39,14,100,7.52,GM,1669480475
376,bosaso,11.2842,49.1816,79.0,72,26,6.82,SO,1669480476
377,santa lucia,27.9117,-15.5407,67.32,73,20,14.97,ES,1669480476
378,aklavik,68.2191,-135.0107,12.2,85,100,5.75,CA,1669480477
379,sharan,54.8167,54.0,16.54,94,100,11.54,RU,1669480477
380,grand baie,-20.0182,57.5802,76.44,66,24,10.0,MU,1669480478
381,koungou,-12.7336,45.2042,82.11,69,75,6.91,YT,1669480478
382,ismailia,30.6043,32.2723,69.87,52,0,9.22,EG,1669480479
383,verkhnyaya inta,65.9811,60.3094,-6.75,95,86,7.07,RU,1669480480
384,vianopolis,-16.7419,-48.5164,79.03,50,42,4.76,BR,1669480480
385,tigil,57.8,158.6667,5.09,85,100,3.76,RU,1669480481
386,ayan,56.45,138.1667,1.56,77,97,12.28,RU,1669480481
387,talnakh,69.4865,88.3972,-18.8,98,100,8.93,RU,1669480482
388,imbituba,-28.24,-48.6703,75.85,91,100,11.39,BR,1669480482
389,taoudenni,22.6783,-3.9836,83.93,14,100,8.39,ML,1669480482
390,shache,38.4167,77.2406,53.71,17,53,5.26,CN,1669480483
391,hami,42.8,93.45,33.84,43,69,7.72,CN,1669480483
392,grand-lahou,5.1367,-5.0242,82.09,74,8,9.35,CI,1669480484
393,itoman,26.1247,127.6694,71.62,83,72,9.22,JP,1669480484
394,ambunti,-4.2365,142.8448,73.54,98,98,1.59,PG,1669480485
395,xiuyan,40.2928,123.2744,25.99,28,69,2.28,CN,1669480485
396,tambura,5.6,27.4667,80.85,33,97,4.68,SS,1669480485
397,abu samrah,35.3029,37.1841,54.46,75,8,8.34,SY,1669480486
398,oussouye,12.485,-16.5469,91.87,23,96,0.83,SN,1669480486
399,shaoguan,24.8,113.5833,66.9,93,88,0.81,CN,1669480487
400,jiancheng,30.391,104.5491,58.64,73,19,2.75,CN,1669480487
401,hambantota,6.1241,81.1185,78.3,80,54,4.0,LK,1669480487
402,alta floresta,-9.8756,-56.0861,85.82,70,75,4.61,BR,1669480488
403,vila,42.0304,-8.1588,52.68,74,100,3.76,PT,1669480489
404,leshukonskoye,64.8989,45.7622,3.99,97,99,4.41,RU,1669480489
405,tarso,36.9188,34.8784,60.67,59,0,3.42,TR,1669480489
406,progreso,21.2833,-89.6667,84.31,59,78,6.13,MX,1669480411
407,morondava,-20.2833,44.2833,82.4,65,8,7.63,MG,1669480490
408,sitka,57.0531,-135.33,37.29,81,100,4.61,US,1669480320
409,ngorongoro,-3.2397,35.4875,58.3,56,94,7.2,TZ,1669480490
410,ulladulla,-35.35,150.4667,58.64,79,72,7.11,AU,1669480491
411,bahadurganj,26.2667,87.8167,68.65,57,0,2.37,IN,1669480491
412,san quintin,30.4833,-115.95,64.74,37,43,3.06,MX,1669480492
413,buraydah,26.326,43.975,75.65,38,9,10.71,SA,1669480492
414,barrhead,55.7992,-4.3929,54.93,85,100,18.01,GB,1669480492
415,wucheng,29.6008,118.175,58.95,89,40,2.73,CN,1669480493
416,gayny,60.3071,54.3241,2.95,97,10,2.86,RU,1669480493
417,honningsvag,70.9821,25.9704,33.55,80,40,31.07,NO,1669480493
418,omsukchan,62.5333,155.8,-34.8,91,28,2.13,RU,1669480494
419,tautira,-17.7333,-149.15,76.41,77,45,12.91,PF,1669480494
420,havre-saint-pierre,50.2334,-63.5986,34.16,93,100,6.91,CA,1669480495
421,bud,39.447,-86.1758,50.9,35,16,6.91,US,1669480495
422,derac,19.65,-71.8167,85.28,60,3,10.16,HT,1669480496
423,newala,-10.9431,39.2787,73.83,61,40,12.5,TZ,1669480496
424,tupik,54.4253,119.9327,-19.52,100,98,1.72,RU,1669480496
425,kayerkan,69.3497,87.7602,-19.48,82,100,7.11,RU,1669480497
426,victoria,22.2855,114.1577,75.38,82,94,11.99,HK,1669480455
427,pacific grove,36.6177,-121.9166,52.83,71,0,4.61,US,1669480413
428,ghanzi,-21.5667,21.7833,79.59,44,82,11.83,BW,1669480498
429,luang prabang,19.8856,102.1347,70.9,99,70,1.39,LA,1669480498
430,fayaoue,-20.65,166.5333,76.62,72,2,14.2,NC,1669480498
431,luderitz,-26.6481,15.1594,68.95,55,0,31.25,NA,1669480499
432,severo-kurilsk,50.6789,156.125,36.43,86,100,25.46,RU,1669480341
433,nuevo imperial,-13.0754,-76.3172,75.38,65,33,9.78,PE,1669480499
434,bay roberts,47.5999,-53.2648,40.51,89,100,5.99,CA,1669480500
435,furano,43.2818,142.4743,30.83,91,67,10.02,JP,1669480500
436,beringovskiy,63.05,179.3167,7.75,95,96,1.03,RU,1669480501
437,aranos,-24.1333,19.1167,90.12,10,6,14.45,NA,1669480501
438,vao,-22.6667,167.4833,72.86,66,6,8.88,NC,1669480502
439,dzilam gonzalez,21.2833,-88.9333,88.74,47,28,5.57,MX,1669480503
440,yakeshi,49.2833,120.7333,-10.89,94,97,4.59,CN,1669480503
441,ipixuna,-1.7625,-48.8043,92.59,44,36,6.2,BR,1669480504
442,valdivia,-39.8142,-73.2459,75.29,27,2,5.86,CL,1669480281
443,bandarbeyla,9.4942,50.8122,78.84,78,9,16.31,SO,1669480505
444,monrovia,6.3005,-10.7969,82.02,71,44,10.92,LR,1669480506
445,cayenne,4.9333,-52.3333,89.64,58,20,11.5,GF,1669480507
446,erzincan,39.75,39.5,45.7,61,75,14.97,TR,1669480508
447,noumea,-22.2763,166.4572,64.38,78,1,7.09,NC,1669480508
448,whitehorse,60.7161,-135.0538,21.97,86,100,6.91,CA,1669480509
449,angoche,-16.2325,39.9086,79.5,79,0,14.79,MZ,1669480509
450,lata,40.1629,-8.3327,61.81,67,100,0.81,PT,1669480510
451,fiumicino,41.7675,12.2291,58.75,58,0,12.66,IT,1669480510
452,louga,58.7372,29.8453,21.31,92,100,7.14,RU,1669480510
453,adre,13.4667,22.2,74.26,15,0,9.71,TD,1669480511
454,jieshi,22.8134,115.8257,71.35,85,100,17.27,CN,1669480512
455,atambua,-9.1061,124.8925,74.34,83,100,1.25,ID,1669480512
456,la asuncion,11.0333,-63.8628,74.93,100,78,18.41,VE,1669480513
457,hermiston,45.8404,-119.2895,40.8,93,0,0.0,US,1669480513
458,pouembout,-21.1333,164.9,71.37,79,6,4.79,NC,1669480514
459,pogar,52.554,33.2591,33.8,99,100,8.95,RU,1669480514
460,flinders,-34.5833,150.8552,63.37,79,67,3.0,AU,1669480514
461,oriximina,-1.7656,-55.8661,87.75,57,71,2.01,BR,1669480515
462,mandera,3.9366,41.867,87.24,43,93,4.29,KE,1669480515
463,tarare,45.8976,4.4327,44.62,93,100,0.94,FR,1669480516
464,harjavalta,61.3167,22.1333,28.13,96,100,4.41,FI,1669480516
465,varhaug,58.6147,5.6457,48.88,83,82,20.87,NO,1669480517
466,manaure,11.7751,-72.4445,87.28,63,56,14.97,CO,1669480517
467,waiuku,-37.25,174.75,58.32,92,100,4.23,NZ,1669480518
468,roald,62.5833,6.1333,52.72,71,40,6.91,NO,1669480519
469,muli,2.9167,73.5667,81.41,68,29,0.78,MV,1669480519
470,san ignacio,17.1561,-89.0714,82.54,78,40,4.61,BZ,1669480519
471,lahat,-3.8,103.5333,72.95,98,100,2.15,ID,1669480520
472,dingle,10.9995,122.6711,74.75,86,6,6.93,PH,1669480521
473,lindi,-10.0,39.7167,76.78,78,0,5.95,TZ,1669480521
474,siocon,7.7061,122.1353,78.49,86,53,5.35,PH,1669480521
475,altagracia de orituco,9.8601,-66.3814,81.3,76,84,3.87,VE,1669480522
476,isla mujeres,21.2311,-86.731,86.16,72,82,12.44,MX,1669480523
477,mahon,39.8885,4.2658,57.76,62,0,11.5,ES,1669480523
478,arroio dos ratos,-30.0772,-51.7292,81.5,58,85,9.84,BR,1669480524
479,qaqortoq,60.7167,-46.0333,29.23,75,74,5.64,GL,1669480524
480,biak,-0.9131,122.8766,75.96,84,14,3.02,ID,1669480525
481,gamboma,-1.8764,15.8644,70.81,95,100,2.48,CG,1669480525
482,tarija,-21.5355,-64.7296,80.78,16,1,7.02,BO,1669480526
483,los llanos de aridane,28.6585,-17.9182,71.35,83,75,5.75,ES,1669480526
484,goundam,16.4145,-3.6708,87.04,6,68,9.51,ML,1669480527
485,port blair,11.6667,92.75,80.06,81,92,7.14,IN,1669480247
486,gat,31.61,34.7642,65.08,100,99,4.81,IL,1669480527
487,los pozos,8.4518,-62.7268,87.04,73,94,5.91,VE,1669480528
488,barcelos,41.5388,-8.6151,62.92,67,100,2.53,PT,1669480528
489,wladyslawowo,54.7909,18.4009,39.94,81,100,5.28,PL,1669480529
490,jaciara,-15.9653,-54.9683,98.58,22,0,4.7,BR,1669480529
491,richards bay,-28.783,32.0377,70.81,88,89,6.38,ZA,1669480530
492,lebu,-37.6167,-73.65,64.02,70,0,19.15,CL,1669480373
493,leningradskiy,69.3833,178.4167,-6.77,91,100,1.3,RU,1669480530
494,limay,14.5333,120.55,77.34,86,17,8.43,PH,1669480531
495,ha giang,22.8333,104.9833,73.15,100,100,2.82,VN,1669480531
496,port hedland,-20.3167,118.5667,77.05,88,6,5.75,AU,1669480532
497,qui nhon,13.7667,109.2333,75.85,89,50,5.73,VN,1669480532
498,townsville,-19.25,146.8,74.28,94,100,1.14,AU,1669480470
499,acapulco,16.8634,-99.8901,84.02,65,75,4.61,MX,1669480491
500,tanout,14.9709,8.8879,75.88,13,29,10.85,NE,1669480533
501,pierre,44.3683,-100.351,49.86,54,0,13.8,US,1669480533
502,borogontsy,62.6683,131.1683,-49.49,100,60,1.01,RU,1669480534
503,susanville,40.4163,-120.653,41.92,64,88,3.0,US,1669480534
504,sistranda,63.7256,8.834,44.56,66,80,13.35,NO,1669480535
505,abu kamal,34.4506,40.9171,62.37,49,73,8.19,SY,1669480535
506,zykovo,55.9519,93.1461,-23.06,87,87,6.69,RU,1669480536
507,jieshou,33.2634,115.3611,54.48,88,2,8.25,CN,1669480536
508,corning,42.1428,-77.0547,51.37,55,0,11.5,US,1669480537
509,coihaique,-45.5752,-72.0662,63.21,42,0,5.75,CL,1669480537
510,mount pleasant,32.7941,-79.8626,66.97,73,19,4.0,US,1669480538
511,tottori,35.5,134.2333,55.63,78,96,10.27,JP,1669480538
512,campo maior,-4.8278,-42.1686,102.78,22,78,3.15,BR,1669480538
513,bambous virieux,-20.3428,57.7575,76.21,73,40,8.05,MU,1669480539
514,sabang,5.8933,95.3214,81.64,76,36,15.68,ID,1669480539
515,ratho,55.9216,-3.3803,52.99,80,20,19.57,GB,1669480540
516,katakwi,1.8911,33.9661,76.39,42,100,6.13,UG,1669480540
517,ust-uda,54.1742,103.0304,-2.67,84,100,13.67,RU,1669480541
518,samarai,-10.6167,150.6667,82.13,76,98,2.06,PG,1669480541
519,pakxe,15.1167,105.7833,73.26,96,95,2.48,LA,1669480542
520,sabancuy,18.9667,-91.1833,85.39,65,73,4.94,MX,1669480542
521,half moon bay,37.4636,-122.4286,56.62,82,0,0.0,US,1669480542
522,ilave,-16.0833,-69.6667,58.86,33,47,14.36,PE,1669480543
523,batagay,67.6333,134.6333,-43.37,97,64,2.33,RU,1669480543
524,poum,-20.2333,164.0167,77.0,71,37,10.07,NC,1669480544
525,slavonice,48.9975,15.3515,41.65,93,100,9.06,CZ,1669480544
526,bijie,27.3125,105.2942,54.66,90,42,1.61,CN,1669480545
527,pacaembu,-21.5622,-51.2606,88.54,25,0,8.57,BR,1669480545
528,murray,40.6669,-111.888,41.9,69,75,4.61,US,1669480545
529,paysandu,-32.3214,-58.0756,95.88,21,0,9.66,UY,1669480546
530,maralal,1.0968,36.698,60.84,72,98,9.42,KE,1669480546
531,leh,34.1667,77.5833,17.29,54,0,1.86,IN,1669480547
532,vangaindrano,-23.35,47.6,73.26,86,54,6.91,MG,1669480547
533,deputatskiy,69.3,139.9,-34.44,97,97,4.72,RU,1669480548
534,tonj,7.2737,28.6822,83.62,25,78,4.32,SS,1669480548
535,parabel,58.6978,81.4825,-17.48,94,98,4.83,RU,1669480548
536,belmonte,-15.8631,-38.8828,79.14,81,100,11.5,BR,1669480549
537,tabas,33.5959,56.9244,64.36,25,6,0.92,IR,1669480549
538,saint-augustin,51.226,-58.6502,31.48,88,100,10.89,CA,1669480550
539,narasannapeta,18.4167,84.05,69.08,72,11,3.78,IN,1669480550
540,coahuayana,18.7333,-103.6833,86.14,55,31,2.46,MX,1669480550
541,skerries,53.5828,-6.1083,58.28,93,100,26.33,IE,1669480551
542,soligalich,59.0778,42.2864,10.9,97,34,3.53,RU,1669480551
543,camacha,33.0833,-16.3333,69.22,64,40,2.3,PT,1669480551
544,dalumangcob,7.2167,124.3,74.88,93,100,2.55,PH,1669480552
545,gimli,50.6336,-96.9907,37.42,75,96,6.91,CA,1669480552
546,ballina,-28.8667,153.5667,66.02,94,100,4.59,AU,1669480553
547,basoko,1.2391,23.616,72.66,96,100,4.56,CD,1669480553
548,port-cartier,50.0334,-66.8654,32.76,82,53,3.6,CA,1669480553
549,govindgarh,27.5,76.9833,66.18,27,1,2.77,IN,1669480554
550,luorong,24.4058,109.6086,67.26,95,96,2.44,CN,1669480554
551,morehead,37.2711,-87.1764,55.63,43,97,7.09,US,1669480555
552,shitanjing,39.2342,106.3439,34.11,42,47,6.85,CN,1669480555
553,healdsburg,38.6105,-122.8692,60.91,38,52,1.66,US,1669480555
554,derzhavinsk,51.1,66.3167,-4.16,82,67,13.38,KZ,1669480556
555,miraflores,19.2167,-98.8083,70.97,41,8,4.52,MX,1669480556
556,banda aceh,5.5577,95.3222,78.8,81,35,10.38,ID,1669480557
557,chacabuco,-34.6417,-60.4739,101.98,18,39,7.45,AR,1669480338
558,rovaniemi,66.5,25.7167,24.21,100,100,8.05,FI,1669480557
559,margate,51.3813,1.3862,53.91,84,100,8.01,GB,1669480558
560,rumonge,-3.9736,29.4386,73.4,80,100,3.71,BI,1669480558
561,rafsanjan,30.4067,55.9939,61.97,25,0,2.59,IR,1669480559
562,ponta delgada,37.7333,-25.6667,63.5,77,20,8.05,PT,1669480559
563,matara,5.9485,80.5353,76.48,84,19,2.68,LK,1669480559
564,washougal,45.5826,-122.3534,42.33,96,99,5.01,US,1669480560
565,bibiani,6.4635,-2.3194,84.74,50,48,0.16,GH,1669480560
566,bara,10.3744,10.7288,81.19,21,7,7.9,NG,1669480270
567,aloleng,16.1307,119.7824,79.38,85,17,5.41,PH,1669480561
568,morant bay,17.8815,-76.4093,87.42,65,10,9.55,JM,1669480561
569,taltal,-25.4,-70.4833,68.38,69,29,5.7,CL,1669480562
570,caravelas,-17.7125,-39.2481,81.03,73,100,10.83,BR,1669480562
